trail_id,name,lat,lon
276181,Mittelpunkt Aargau,47.418831,8.217142
257134,Grossteilerberg Bike,46.836346,8.18559
130918,Bergwanderung Wildspitz,47.07999,8.62753
120881,Walking- und Joggingrouten in der Region Eigenamt,47.434914,8.194304
260871,Klettersteig Diavolo (Bis voraussichtlich Ende Mai geschlossen),46.647327,8.591759
6738,Vier-Seen-Wanderung,46.816788,8.396773
156896,Himmlische Pfade: Einsiedeln - Stadt Zug,47.12672,8.75043
252517,5-Hütten-Panoramaweg: Etappe 1  Göschenen zur Dammahütte SAC,46.665977,8.58836
281733,Riedalp-Trail Brunni,46.832218,8.40734
161140,Schneeschuh Tour von  Luthern Bad auf den Napf,47.027142,7.925091
114184,Etappe: Stoos - Morschach | Schwyzer Tal- & Gipfeltour,46.981483,8.664059
6736,Walenpfad,46.832378,8.407652
254356,Hitzkirch - Horben - Lieli - Hitzkirch,47.222256,8.252647
199934,Rossweid - Kemmeribodenbad,46.808895,8.026768
86669,Wildromantische Wanderung in der Göscheneralp,46.649017,8.498889
491848,Kleiner Rundweg Leutschen,47.197521,8.734911
504722,Muotathal - Pfannenstock,46.938107,8.835381
74619,Stoos - Brunnerboden,46.978092,8.666851
176931,Panorama-Route: Sempach-Buttisholz-Sempach,47.124336,8.189068
368325,WanderWunder Schwyz: Rund um den Glattalpsee,46.914436,8.846305
177003,Ächerlipass E-Biketour,46.933529,8.391889
163881,Hirsegg - Schrattenfluh - Rossweid - Sörenberg,46.838638,8.012206
77221,Höhenweg Chilcherbergen-Golzern,46.793987,8.684705
131002,"Sattelpass, Seewenegg",46.836689,8.1866
159648,"Cable car to Klewenalp, Walk to Stockhuette",46.940117,8.473401
383216,Stoos - Chruteren-Bawangli-Seilstock,46.977982,8.66684
177083,Jochpass-Trail,46.778633,8.387044
120926,Römerrebberg und Flösser,47.478985,8.206606
252481,Panoramaweg Sihlsee,47.126766,8.749545
157653,Emmenuferweg,46.804859,8.06484
280155,Schlittelbahn Bogenfang,47.05843,8.695499
928073,Winterlicher KulinarikTrail Marbach,46.850288,7.895442
299957,Reuss Kanu,47.350822,8.338
173264,Bahnentour Mythenregion – Hoch-Ybrig,47.014755,8.669223
181337,Rundweg Freyenweiher - Krebsbach,47.195332,8.724502
7595,Panorama Wanderung Melchsee-Frutt - Abgschütz - Älggialp - Stöckalp,46.774582,8.268499
120893,Skulpturenweg,47.429482,8.119948
663236,"Gipfelwanderung zum Stuckli Chriiz, Sachseln",46.837345,8.238875
245408,Alpenkranz 40. Etappe: Spannorthütte -Surenenpass - Brüsti,46.799976,8.510064
563545,Rund um Stans,46.958462,8.366842
132994,Römerstadt & Aussichtsturm,47.538372,7.723652
202600,4-Seen Wanderung,46.819626,8.402855
257152,Obwaldner Höhenweg: Etappe 1,46.979576,8.253691
601914,Sonnentauweg Sörenberg,46.808273,8.026469
288089,Titlis Trail Fürenalp,46.801231,8.468351
265543,Sternenegg-Bike-Tour,47.039726,8.782337
257174,Touring-Route 3: Historische Hauptorte,46.894726,8.247314
350244,"5-Hütten-Panoramaweg Uri, Zwitserland",46.668262,8.586892
554929,Spaziergang Kerns - Flüeli-Ranft,46.90094,8.274556
120869,Kultur- und Rebsortenlehrpfad Oberflachs,47.442265,8.128799
541489,"Motivationspfad ""a de Wegere""",47.189598,7.976434
178096,Ein Familienausflug wie aus dem Bilderbuch,46.785797,8.159682
554976,Kulinarische Wanderung am Sarnersee,46.897633,8.245239
208229,Escholzmatt - Turner,46.91539,7.936145
159643,"Walk to Stans, train and cog railway to Pilatus",46.967133,8.474922
219488,Köhlerweg Romoos,47.010971,8.02717
255949,Felsenweg Bürgenstock,46.997276,8.381891
72169,Rigi Lehnenweg,47.096478,8.463456
132220,Schimbrig-First-Tour,46.978077,8.047148
300812,Rigi Goethe Weg,47.036667,8.475772
266685,Luthertaler Sagenweg,47.098495,7.917757
311552,Geo-Wanderweg Küttigen,47.421375,8.051472
67881,Schwyzer Höhenweg 2. Etappe Rigi – Goldau,47.053623,8.47423
452353,Über den Schlierengrat,46.893024,8.125768
211591,Von Luzern über Rio de Janeiro nach Meggen,47.05106,8.309095
72817,Historische Spazierwanderung Hohle Gasse,47.096611,8.463267
95934,Rigi - Klösterliweg,47.044113,8.466572
761104,Schwander Chilbi,46.821354,8.405994
931679,Rundtour Willisau - Ostergau - Soppisee - Alberswil,47.122452,7.996687
120855,Aargauer Altstädte,47.391968,8.044489
332341,Gletscherspur Seebodenalp,47.070721,8.466987
87340,Spielplatz-Safari rund um Altdorf,46.881809,8.643758
117069,Klingnauer Stausee,47.588886,8.290236
158658,Bergbeizli-Weg mit Chäs(S)pass,46.977196,8.667306
232762,Alpenkranz 28. Etappe: Chelenalphütte - Hinter Mur - Bergseehütte,46.671738,8.440046
784269,Seebodenalp Panoramaweg,47.068718,8.466807
262231,Vier - Quellen - Weg: Etappe 2 Über den Giübin zum Gotthardpass,46.59446,8.658114
1002854,Küssnacht SZ – Seebodenalp – Küssnacht SZ,47.081333,8.439483
216648,"2-Tagestour T5, Über Grat-Weg zur Capanna Cadlimo",46.660301,8.670187
65426,Naturkundlicher Höhenweg Schächental,46.871479,8.837976
931665,Willisau-Hergiswil-Menzberg-Willisau,47.12093,7.992565
761068,Lägerngrat Wanderung,47.476357,8.308279
8940,Aaschlucht,46.820415,8.405957
84518,Etappe: Morschach - Brunnen | Schwyzer Tal- & Gipfeltour,46.981667,8.618537
163004,Schneeschuhtrail Hirsegg - Chlus,46.838589,8.012342
972232,Tell-Trail Etappe 4: Luzern-Pilatus-Stans,47.051052,8.310268
219487,Moorpfad Mettilimoos,46.993546,8.062507
1040628,Bad Zurzach – Hörndli – Schachen – Rekingen – Bad Zurzach,47.588764,8.290226
319576,Rundweg Lungerersee,46.813435,8.1754
311539,Rund um Sulz,47.555141,8.08968
222292,4-Seen Biketour «Express»,46.819515,8.402901
532500,Rigi Burggeist - Vitznaueralpen Rundweg,47.025608,8.524686
114190,Etappe: Rigi Scheidegg - Rigi Kaltbad | Schwyzer Tal- & Gipfeltour,47.027435,8.5222
336242,Etappe 08 Via Glaralpina - Gämsfairen - von der Wanderratte zum Gletscherfloh,46.888088,8.90311
1002658,Schneeschuhtour Niederbauen - Hundschopf,46.946278,8.534958
81698,Etappe: Rigi Kaltbad - Staffel - Klösterli | Schwyzer Tal- & Gipfeltour,47.044094,8.466499
262286,Winterwanderung zur Talstation Luftseilbahn Brienzer Rothorn,46.82169,8.034526
1006977,Mythenregion – Rundwanderung Ibergeregg – Grossboden – Müsliberg – Zwäcken – Ibergeregg,47.01746,8.733356
116453,Römerstraße Neckar-Alb-Aare,47.481209,8.21889
76052,Winterwandern Seebodenalp,47.068989,8.466639
120835,Fricktaler Höhenweg (5): Sennhütten - Mettau,47.514088,8.120721
177098,Engelberg Trübsee,46.819557,8.402884
187843,Weg durchs grüne Band,47.203098,8.787361
310030,Urserntal,46.636631,8.593263
177095,Biketour Surenenpass,46.819546,8.402914
972230,Tell-Trail Etappe 2: Muotathal - Brunnen,46.972733,8.772677
260817,Oberalppass: Andermatt - Sedrun,46.636646,8.593264
162059,Illgau - St. Karl-Ibergeregg-Rundweg,47.001301,8.718853
317727,"Genussroute Sempachersee - ""Gourmet""",47.177555,8.105997
280172,Veloroute Baldeggersee,47.189182,8.397752
603115,Mäderenweg,47.104561,8.675995
925507,Aussichtsreiche Wanderung über den Heitersberg,47.476273,8.309117
251896,Seerundgang Göscheneralp,46.649071,8.498924
163913,Salwideli - Arniberg - Tannigsbode - Salwideli,46.813538,7.995762
656515,Kulinarische Wanderung auf der Klewenalp,46.940357,8.473365
616548,Von Riemenstalden über Rophaien und Äbneter Stöckli,46.946701,8.665377
189778,Dreipärke-Radtour Abschnitt West,47.608002,8.23421
252518,5-Hütten-Panoramaweg: Etappe 3 Chelenalphütte SAC zur Bergseehütte SAC,46.671761,8.440028
362636,Höhenwanderung vom Oberalppass nach Nätschen,46.65987,8.670728
257149,Bruderklausenweg,46.958122,8.366682
132223,Moorlandschaftspfad: Hilferenpass,46.884151,8.01499
444853,Seewligrat Biketour am Bürgenstock,46.985054,8.413879
1013210,Herzschlaufe Napf Etappe Entlebuch - Willisau #399,46.994423,8.06297
251373,Chamerstock,46.885136,8.931719
251418,Klewenalp-Stockhütte,46.940144,8.473413
257157,Fruttli Weg,46.774242,8.268338
102101,Alpenkranz 3. Etappe: Biwaldalp- Sassigrat - Musenalp,46.88023,8.528362
541511,WanderWunder Schwyz: Moorweg Rothenthurm,47.105682,8.674682
260853,Albert-Heim-Hütte SAC,46.593021,8.461224
76799,Waldstätterweg 7. Etappe Beckenried - Rütli,46.966812,8.475179
279712,Bannalp,46.871685,8.435249
101036,Alpenkranz 2. Etappe: Gitschenen – St. Jakob - Biwaldalp,46.900211,8.500266
179300,Die Alpenvorgartentour,47.23811,8.191626
203832,"Mosen – Aesch – Hitzkirch – Gelfingen, Weingüterwanderung",47.244423,8.224232
129986,Chinzig Bike - 417 SchweizMobil,46.876526,8.631489
120885,Erlebnis Wasserschloss: Brückenwanderung lang,47.481293,8.210505
51216,Durch den Ostergau,47.122578,7.997566
563543,Nach dem Fisch zum Bürgenstock,47.000328,8.365749
157912,Hochstammland Tour,47.221664,8.251267
231159,Alpenkranz 23. Etappe: Rotondohütte -Furkapass-  Sidelenhütte (via Rottälligrat),46.545029,8.484318
158667,Chäferliweg Illgau,47.000031,8.719991
850708,Zu Besuch beim Weingut Heidegg und Kaiserspan,47.213413,8.265148
132287,Marbacher Panoramarunde,46.854134,7.900121
159605,Rundtour Göscheneralp,46.636742,8.595025
58669,Via Alpenpanorama-Weg auf den Napf,47.040787,7.997874
544339,Rundwanderung an der romantischen Reuss,47.351536,8.346055
616583,Von Tschinglen via Gandstock - Mittaghorn - Martinsmadhütte nach Elm Töniberg,46.905746,9.193256
6664,Grotzliweg Fürenalp,46.801044,8.468335
156908,Weg Innerschweiz: Einsiedeln - Buochs,47.12656,8.75026
594409,Rundtour Luthern - Ober Scheidegg,47.059319,7.916611
120849,Natur und Genuss im Jurapark Aargau,47.479633,7.975259
343562,Salz erleben - auf dem historischen Salzparcours,47.56435,7.825007
108707,Arnisee - Sunniggrat - Leutschachhütte,46.769321,8.642209
251901,Vermigelhütte SAC,46.636646,8.593311
117045,Zurzibieter E-Bike Tour,47.588871,8.290225
329545,Alpkäse-Trail Etappe Untertrübsee/Gerschnialp,46.819675,8.408532
129991,Erstfeldertal Bike - 405 SchweizMobil,46.820412,8.650762
156772,Himmlische Pfade: Heiligkreuz - Werthenstein,46.949413,8.048729
2256,Melchsee-Frutt - Distelboden - Tannalp,46.773788,8.268242
260844,Furkapass: Realp - Oberwald,46.598495,8.503452
451313,Panorama Biketour auf Klewenalp,46.940159,8.473421
110808,"Napf, 1406 m von Romoos",47.011124,8.027599
289909,Jänzi Panorama Trail,46.892941,8.125772
761106,Walenstock Loop,46.832424,8.407328
368327,WanderWunderSchwyz: Ibergeregg bis Laucherenstöckli,47.017456,8.733409
253286,"Rundweg Seebodenalp Küssnacht am Rigi, Schweiz",47.069141,8.466056
156749,Luzerner Weg: Werthenstein - Willisau,47.053963,8.103052
156902,"JW für Radfahrer ""Luzernerweg"": Luzern - Burgdorf",47.051003,8.310195
205618,Familienwanderung Erlebnisweg Gurtnellen,46.726929,8.621986
262288,Winterwanderung Gastronomische Rundwanderung Sörenberg,46.808647,8.027116
132213,Dani Schniders Profi-Trainigsstrecke,46.950581,8.01485
972231,Tell-Trail Etappe 3: Brunnen - Rigi Kaltbad - Luzern,46.993732,8.605365
107857,Höhenweg Maderanertal,46.775036,8.721621
260864,Dreipässefahrt: Susten - Grimsel - Furka,46.636665,8.593349
164698,Winterwanderweg 525: Engelweg Seelisberg,46.967281,8.584698
120939,Fricktaler Höhenweg (4): Frick - Sennhütten,47.507263,8.012852
491842,Rundweg St. Meinrad – Etzelkulm,47.173428,8.772146
283319,Steinberg,46.770901,8.424323
245407,Alpenkranz 14. Etappe: Windgällenhütte - Tritt - Hüfihütte,46.790188,8.755562
563554,Alpenblumenweg um den Klewenstock,46.940372,8.473365
72770,"Rigi-Panoramaweg, Rigi First - Rigi Scheidegg",47.047062,8.476644
165230,Schneeschuhtrail 880: Göschenen,46.666725,8.581116
93699,"Schlittelweg Nätschen-Andermatt, Anfahrt mit dem Zug",46.641716,8.611976
260834,Winterwanderung Marbacher Genusstour,46.850292,7.895436
199808,Flühli - Wasserfall Chessiloch,46.883945,8.015556
133123,Römerweg,47.568001,8.264206
156752,Luzerner Weg: Luzern - Werthenstein,47.051201,8.312096
514904,Schneeschuhtrail Brämegg,46.940212,8.473366
72204,Gemütliche Wanderung durch die Tunnels am Hoch Weg,46.863945,8.633066
164697,Schneeschuhtrail 885: Haldi,46.864262,8.670455
120821,Wellnesstour im Zurzibiet,47.587818,8.290936
58696,Surenenpass - Historischer Übergang,46.843105,8.606748
723901,Rund um den Morgartenberg,47.09071,8.63404
229072,Alter Schwyzerweg,47.039726,8.782337
212800,Alpenkranz 5. Etappe: Eggberge - Schön Chulm - Lidernenhütte,46.901569,8.64421
294645,Bireggwald - Oberrüti - Luzern,47.034489,8.312096
251892,Moorlehrpfad Fliesgaden,46.636715,8.593567
190758,Rundwanderung Heiligkreuz-First,46.949478,8.048744
251894,Dammahütte SAC,46.649063,8.49892
260832,Oberalppass - Fellilücke,46.658901,8.670929
262258,Schneeschuhtrail Heiligkreuz - Reistegg - First,46.947929,8.0497
622256,Brunni - Rotenflue Rundwanderung,47.042053,8.703017
928879,Schützenried-Rundweg (Schweiz Mobil Route 560),47.095802,8.815841
513783,Panoramawanderung Stäuber,46.801228,8.46834
654490,Von Stäfeli via Mittaggüpfi - Stäfeliflue - Blaue Tosse - Risetestock - Stäfeli,46.971989,8.167915
602803,Chänzeli-Tour,47.476078,8.308167
244041,Alpenkranz 31. Etappe: Salbithütte - Wassen - Sustenpass,46.676449,8.551867
258526,Wiss Emme Weg - Escholzmatt-Schüpfheim,46.915161,7.936147
693224,Einsiedeln-Schwyz (Panoramabike Etappe 6),47.12907,8.745146
65379,Wildspitz,47.049793,8.549948
129996,Haldi Bike - 413 SchweizMobil,46.875935,8.631974
244841,Weg der Schweiz - Rütli-Seelisberg - SchweizMobil Nr. 99,46.970219,8.593235
117046,Der Häuserweg,47.5835,8.291698
458393,Geologischer Wanderweg,46.7826,8.417597
162992,Schneeschuhtrail Golfplatz Flühli - Sörenberg,46.866898,8.01814
117049,Der Waldweg,47.588764,8.290182
260889,Gottardo - Wanderweg,46.667271,8.589314
257159,Höhenweg Turren - Brienzer Rothorn,46.789371,8.129596
260902,Gotthardpass: Hospental - Airolo,46.620937,8.570386
258007,Chatzenstrick,47.127892,8.744914
133115,Flösserweg Laufenburg-Stilli,47.559887,8.061237
6746,Surrenenpass,46.817917,8.402138
300047,Aare-Route: Von Aarau nach Koblenz,47.393642,8.035812
156893,Himmlische Pfade: Ingenbohl - Einsiedeln,46.99902,8.615911
267163,Oberiberg-Furggelen-Ibergeregg,47.035137,8.7724
117050,Der Naturweg,47.58831,8.295108
68467,Schöpfungsweg Teil 1,46.97747,8.615443
70276,Schöpfungsweg Teil 2,46.976391,8.757159
100608,Alpenkranz 1. Etappe:  Klewenalp - Hinterjochli - Gitschenen (Isenthal),46.940536,8.472948
265538,Höhenweg Hoch-Ybrig,46.999859,8.797631
357289,Grenzschutz (Ausflug in die Vergangenheit),47.538433,7.723557
165228,Schneeschuhtrail 875: Andermatt,46.633942,8.598462
75906,Panoramawanderung über dem Urnersee von Bauen nach Emmetten,46.934662,8.57932
177653,von Adligenswil aufs Michelskreuz nach Meierskappel,47.073589,8.360945
120831,Fricktaler Höhenweg (2): Zeiningen - Wegenstetten,47.542885,7.872252
74618,Stoos - Rieter,46.978367,8.666894
294097,Schutzwaldpfad Heiligkreuz,46.946884,8.048301
164691,Winterwanderweg 511: Realp - Tiefenbach,46.597466,8.501826
2258,Stöckalp - Tannalp,46.802528,8.279014
522355,"Hildisrieden - Herlisberg - Hitzkirch, Natur und Landschaft am Erlosen",47.151279,8.228129
563551,Im Hexen-Paradies – Wirzweli/Wiesenberg,46.91396,8.367119
177093,4-Seen Biketour «Tour +» in Engelberg,46.819408,8.402967
120905,Panoramaweg zur Linner Linde,47.48175,8.209203
505555,Rundweg Wollerau-Becki-Erlenmoos,47.195297,8.724495
932157,Zugerberg - via Blasenberg - Rundwanderung,47.149551,8.521102
202595,Hohfadweg,46.819641,8.402844
543685,Bonistock Rundtour,46.773903,8.268335
423912,Fluonalp - Dundelegg,46.806278,8.120512
254341,Schloss Hallwyl – Eichberg – Schloss Hallwyl,47.323517,8.195045
120863,Wellness3-Tour: Schinznach Bad - Rheinfelden,47.458992,8.166499
162711,Suworow Velo-Route,47.021072,8.651323
251875,Rundweg Golf,46.636715,8.593567
610961,Altishofen - Bellevue - Grossdietwil,47.202427,7.967051
164694,Winterwanderweg 513: Andermatt - Nätschen,46.636696,8.593442
453516,Urwaldweg Bödmeren,46.9795,8.823693
120940,Freiämterweg: Othmarsingen - Schongau,47.407307,8.21478
158682,Wetterfrosch-Wanderweg gross,46.976467,8.757339
156741,Rorschacher Ast: Siebnen - Einsiedeln,47.175694,8.89722
189908,Rund um den Roggenstock,47.039829,8.782005
513786,Höhenweg Fürenalp - Dagenstal - Zieblen,46.801517,8.468469
291209,Rundtour Willisau - Ostergau,47.121166,7.99293
257184,"Alpoglen Trail, Mörlialp",46.825214,8.110328
613172,Kindli-Weg: Gersau - Kindli-Kapelle am See,46.990795,8.526062
274496,Schneeschuh Tour Luthern Bad - Niespel - Badegg,47.027222,7.925118
610959,Rundtour Ettiswil - Kottwil - Wauwilermoos,47.149895,8.01875
498700,Schlittelpiste Luftseilbahn Illgau-St.Karl,47.000011,8.720042
476514,"Auenpark, Biobad und Schloss Wildegg",47.390888,8.052315
552486,Oberhöfler Wanderwege,47.451561,8.005491
63234,Route Beinwil am See – Hallwil,47.26643,8.202812
942113,Naturkundlicher Höhenweg Isenthal Route 1,46.910698,8.562635
972240,Tell-Trail Etappe 8: Lungern - Brienzer Rothorn - Sörenberg,46.782925,8.155891
312298,Naturlehrpfad Lungern,46.783375,8.159132
7598,Panorama-Rundwanderung Melchsee-Frutt - Planplatten - Melchsee-Frutt,46.774582,8.268371
254354,Gelfingen - Horben - Baldegg,47.213535,8.265023
162061,Illgau - Rundweg Oberberg,47.000011,8.72005
81705,Winterwanderweg Rigi Staffel - First,47.053516,8.474156
68875,Zur Rheinquelle: Oberalppass -Tomasee,46.659912,8.671059
120935,Freiämterweg: Bremgarten - Othmarsingen,47.350578,8.34375
251863,Andermatt-Göschenen durch die Schöllenen,46.636715,8.593567
251422,Arni-Gurtnellen Dorf,46.769184,8.642253
640826,Nebikon - Ebersecken - Fischbach,47.193382,7.977078
503624,Winterwanderung Kulinarisches Wintervergnügen in Marbach,46.850266,7.895404
613199,Rundwanderung Gersau - Ausserurmi- Märis-Bänkli - Gersau,46.990681,8.526046
251879,Tomasee,46.659912,8.670438
885349,Sarneraatal Route,46.786358,8.163401
82233,Etappe: Illgau - Muotathal | Schwyzer Tal- & Gipfeltour,46.98782,8.724988
510755,WF - Lautlos durch verschneite Wälder 1,46.999836,8.720312
656513,Kulinarische Wanderung entlang des «Weges der Schweiz»,46.970341,8.593346
205615,Familienwanderung Eggberge - Biel,46.901569,8.644208
463033,Vitznauer-/Gersauerstock,47.002953,8.496121
164695,Winterwanderweg 512: Urserental,46.636677,8.593382
120812,Tiersteinberg Bike,47.511711,8.011005
195069,Rundweg Wollerau-Altenbach-Becki,47.195538,8.724618
159437,Winterwanderung Rund um den Golfplatz in Flühli,46.866993,8.018082
90022,Stoos - Fronalpstock,46.977814,8.662278
1002852,Unteraegeri – Wildspitz – Unteraegeri,47.138508,8.590238
300801,Jura-Höhenweg: Von Baden bis zum Geissfluegrat,47.476376,8.308266
99106,Bike-Tour Schöllenen - Stöckli - Riental,46.665962,8.588436
120813,Wasserschloss Wanderung,47.480701,8.208508
505583,Rundweg Schwändi,47.20285,8.778365
546953,Vier-Quellen-Weg,46.660149,8.670267
907678,Rothenthurm – das grösste Hochmoor der Schweiz,47.105656,8.674376
198397,"Via Urschweiz, 2. Etappe",46.910542,8.561569
55732,Schächetaler Höhenweg,46.901886,8.64448
164696,Winterwanderweg 520: Ruoggig - Biel - Ratzi,46.885544,8.732177
215686,"2-Tagestour,  Passo Bornengo - Capanna Cadlimo",46.659103,8.67112
257168,Melchsee-Frutt - Tannalp - Melchsee-Frutt,46.775543,8.268919
71079,"Schwyzer Höhenweg, Etappe 5, Haggenegg – Einsiedeln",47.051834,8.683167
120817,Familientour im Jurapark Aargau,47.530937,8.139031
120825,Felix Hoffmann-Weg,47.392677,8.042593
90792,Oberalppass – Disentis,46.658775,8.671131
524986,Turren - Breitenfeld -Turren,46.789368,8.129603
74628,Schöpfungsweg,46.977409,8.61539
59482,Bergwanderung von Unterschächen zum Wäspen-Seeli,46.864403,8.781019
90018,Etappe: Gratwanderweg Stoos | Schwyzer Tal- & Gipfeltour,46.973335,8.671328
72119,Gratwanderweg Stoos,46.95697,8.675947
219457,Zyberliland Romoos - der abenteuerliche Bärgmandli-Themenweg,47.01128,8.027829
171154,Rund um den Hallwilersee,47.26759,8.202197
99102,Radtour Pragel - Klausenpass,46.901939,8.624028
531842,"Schöftland - Beinwil am See, Aargauer Aussichtsweg",47.305622,8.050106
476516,Industriekulturpfad Limmat-Wasserschloss,47.480457,8.208947
156770,Himmlische Pfade: St-Urban - Luthern Bad,47.231403,7.839208
476491,Sinnespfad und Sauriermuseum,47.491444,8.003787
72166,Rundwanderung auf dem Panoramaweg Morschach,46.981674,8.618542
99105,Bike-Route 417: Chinzig Bike-Tour,46.876099,8.631768
658345,"Weg der Schweiz: Etappe 2, Seelisberg–Flüelen",46.975647,8.585758
300795,Seetal–Bözberg,47.050716,8.309284
361160,Polenweg: Seebodenalp – Oberarth,47.069187,8.466025
176910,Iron Bike-Tour,47.128227,8.751931
132284,BUIRÄBÄHNLI SAFARI Etappe 1,46.819298,8.402513
129548,Huebäbni,47.19215,7.977568
71360,Route Tellskapelle – Brunnen,46.934063,8.612704
283320,Laub,46.785641,8.420069
485646,Winterwanderung Gerzensee,46.900757,8.274721
260880,Winterwanderung Marbachegg-Bumbach,46.835079,7.906452
156740,Innerschweiz-Weg: Stans - Flüeli-Ranft,46.956871,8.365941
248565,Arnisee - Hinterarni & Arnisee - Vorderarni,46.76918,8.642254
163342,Steinbock-Trek Brienzer Rothorn 1. Etappe,46.808678,8.027042
356288,Das Herz der Schweiz erkunden und die Mitte finden,46.773914,8.270501
53555,Familienwanderung Oberalppass - Tschamut,46.66008,8.670656
618982,Von Voralphütte via Horenfellistock und Bergseeschijen nach Bergseehütte,46.690514,8.487769
59734,Urigen - Ratzi,46.871376,8.758828
594236,Rundtour Menznau - Soppisee,47.083611,8.040465
157631,Fricktaler Höhenweg,47.551117,7.791601
132226,Fürstein - Wanderung zwischen Waldemme und Sarnersee,46.87442,8.061
254349,Ballwil – Horben - Hitzkirch,47.15395,8.317172
98964,Bike-Tour auf dem Weg der Schweiz,46.901913,8.62401
156890,Himmlische Pfade: Stadt Zug - Beromünster,47.170235,8.513296
129990,Gitschital Bike - 404 SchweizMobil,46.875935,8.631974
777851,Rundwanderung Euthal - Wildegg - Chli Aubrig,47.097851,8.819944
196107,"Velotour ""Rund um die Horwer Halbinsel""",47.05098,8.308965
7686,Von Kerns aufs Stanserhorn,46.900936,8.274604
159636,"Cable car to Rigi Kaltbad, walk the Panorama Trail, boat to Beckenried",47.043999,8.466652
203805,Willisau - Menzberg,47.122395,7.996749
245412,Alpenkranz 36. Etappe: Arni - Riedboden- Sunniggrathütte,46.771755,8.64165
525405,Tessiner Anschlussweg zur Via Jakobi: Andermatt - Amsteg,46.636669,8.593354
931468,Gnipen - ab Goldau - Rundwanderung,47.052654,8.555518
198401,"Via Urschweiz, 1. Etappe",46.9011,8.623999
452370,Choltal Biketour auf Klewenalp,46.956345,8.513913
64281,Clariden Höhenweg,46.86813,8.855253
504068,Urner Haute Route,46.598812,8.501959
108705,Erstfeldertal: Bodenberg - Chüeplangg - Kröntenhütte,46.811569,8.603192
132225,Moorlandschaftspfad: Habkern / Sörenberg,46.82185,8.03431
995264,Rundwanderung auf das Mittaggüpfi,46.952885,8.221749
234452,Vita Parcours Oberiberg mit Wellnessoasen,47.034203,8.770705
65592,Hochwanderung vom Urnerboden zum Klausenpass,46.885101,8.931668
162929,Sagenhafte Wanderung im Antlitz der Schrattenfluh,46.834736,7.906152
300808,Sattelegg - Chli Aubrig,47.1273,8.846746
257148,Mittaggüpfi Pilatus,46.952908,8.221807
318785,Höhenroute Langis-Pilatus,46.892956,8.126086
943084,Naturkundlicher Höhenweg Isenthal Route 3,46.880161,8.52792
1022019,"Erlebnisweg ""Lea und Ben bei den Mutterkühen"" - 1. Mai bis 31. Oktober 2021 in Meierskappel",47.124641,8.443224
132285,BUIRÄBÄHNLI SAFARI Etappe 3,46.866959,8.422853
157632,Freiämterweg,47.407307,8.214629
251866,Göscheneralp-Göschenen,46.649044,8.498908
285672,Panoramaweg Rigidalalp,46.832199,8.407261
171498,Etzeltour,47.129009,8.74505
723906,Schleifenroute Schweiz / Arth-Goldau - Einsiedeln (Etappe 7),47.04945,8.547092
162075,ViaSuworow,46.972538,8.772036
120845,Auen- und Rebenlandschaften,47.392193,8.044889
362634,2 Tages Tour Chaiserstock,46.97435,8.757552
601915,Rundtour Nebikon - Santeberg,47.192905,7.977077
62441,Schleifenroute CH / Aarau - Schinznach-Bad / Wanderung 6,47.391796,8.04996
120833,Fricktaler Höhenweg (3): Wegenstetten - Frick,47.498314,7.93274
285674,Engelberg-Fürenalp Talstation,46.819576,8.402875
232763,Alpenkranz 27. Etappe: Dammahütte - Vorderröti - Chelenalphütte,46.644665,8.457674
925509,Über den Homberg – den Aussichtspunkt im Aargauer Mittelland,47.257259,8.181597
156899,Himmlische Pfade: Engelberg - Bann Alp,46.821033,8.409424
368234,WanderWunder Schwyz: Rigi Hinter Dosse,47.027439,8.522209
974658,Auf den Familienberg,47.067287,8.650037
583245,Zell - Ufhusen - Huttwil,47.136543,7.926175
767102,Gersauer/Vitznauer Stock,46.990791,8.52605
95912,Steinboden – Fuederegg –  Seebli,47.014477,8.771051
257147,Bartgeier auf Melchsee-Frutt,46.77457,8.268393
665014,Mittelland-Route für Familien: Aarau-Murten,47.390453,8.047496
618994,Von Dammahütte via Lochberglücke nach Albert-Heim-Hütte,46.644787,8.457689
294702,Freiämter Kinderweg Benzenschwil,47.246971,8.365741
157654,Moorlandschaftspfad UNESCO Biosphäre Entlebuch,46.82185,8.03431
309971,Gotthard Bike: Etappe 1 Andermatt - Airolo,46.636623,8.593217
120937,Freiämterweg: Othmarsingen - Widen,47.407349,8.21482
179744,Wurzelweg durch den Chäswald,47.03978,8.781942
117066,Bachsertal - Glatt,47.588772,8.290182
453521,Rund um den Arnisee,46.769279,8.642262
928883,Hoch-Ybrig – Rundtour zum Seeblisee,47.014462,8.771069
828356,E-Bike Genuss-Tour Rund um den Zugersee,46.994968,8.606164
541493,WanderWunder Schwyz: Goldauer Bergsturzspur,47.049206,8.550053
130928,Karin Thürig Rundfahrt,47.192932,8.253507
254327,Moor-Rundweg Rossweid-Salwiden,46.808697,8.026985
254799,Sihlseeli,47.064049,8.849169
81697,Etappe: Brunnen - Rigi-Scheidegg | Schwyzer Tal- & Gipfeltour,46.99379,8.605531
254788,1x Meringue und zurück,46.991787,8.064725
208232,Marbachegg - Bumbach - Marbach,46.834984,7.906363
599040,Gipfelrundweg,47.06752,8.650099
117068,Genusstour am Hochrhein,47.588764,8.290247
260873,Kräuterlehrpfad,46.636715,8.593567
455699,Gottardo Bike - Full itinerary (3 stages),46.637791,8.595174
312297,Moorbäerpfad Langis,46.892956,8.126101
201195,Baldegg – Schloss Heidegg – Gelfingen,47.185547,8.28071
1040632,Schneeschuhtour auf dem Glaubenberg - ideal für Einsteiger,46.892948,8.126208
260870,Mehrtageswanderung von Pilatus Kulm über das Mittaggüpfi nach Sörenberg,46.979435,8.255635
69151,Rigi,47.048519,8.550023
222339,Alpenkranz 6. Etappe: Lidernenhütte - Rossstock -  Biel,46.935043,8.692683
71124,Geologische Wanderung Roggenstock,47.039841,8.782062
117053,Bad Zurzach - Hördnli - Zurziberg - Tegerfelden,47.58831,8.295108
658344,"Weg der Schweiz: Etappe 1, Brunnen (Rütli)–Seelisberg",46.970299,8.59332
159057,Auf den Muotataler Hausberg,46.938282,8.835126
257138,"Bonistock Trail, Melchsee-Frutt",46.775539,8.268938
120908,Axporama und Klingnauer Stausee,47.555096,8.223091
177010,Stans - Rotzschlucht - Ennetmoos,46.957863,8.367236
98963,Bike-Tour Bärchi,46.90152,8.623969
618974,Von Salbithütte via Salbitbrücke und Sustenjoch nach Voralphütte,46.676731,8.551966
265551,Stoos Nordic Walking gelb 1,46.983582,8.66611
244029,Alpenkranz 32. Etappe: Sustenpass -Guferjoch- Sustlihütte,46.7285,8.449372
176901,Drei-Pässe-Rundfahrt (Pragel-Sattelegg-Ibergeregg),47.021042,8.653755
83624,Rundwanderung über Gibelstöcke und Seewlialp,46.842957,8.606929
167114,Aaschlucht E-Biketour,46.869904,8.372074
117059,Rund um den Belchen,47.565544,8.374974
7629,Halbtagestour Melchsee-Frutt - Bonistock - Bettenalp - Melchsee-Frutt,46.774555,8.268414
984950,Schlittelweg Rotenflue - Rätigs,47.020943,8.702946
257151,Obwaldner Höhenweg: Etappe 2,46.89296,8.125747
172179,4-Seen Biketour in Engelberg,46.819527,8.402902
313097,Chärwaldräuber,46.929447,8.298895
129675,Willisau - Menzberg - Ostergau (Panorama Tour),47.12265,7.996415
560205,Vitaparcours Alpnach,46.943016,8.273193
559127,Fünf-Weiher Wanderung,47.345425,8.337407
120847,Aussichten und Alpenzeiger,47.391254,8.169772
310603,Naturena Sinnespfad,47.491165,8.004046
98899,Bike-Tour 406: Urner Oberland-Bike,46.769695,8.670982
257153,Vier-Seen-Wanderung,46.773678,8.268677
368309,Weg der Visionen,46.87204,8.269038
159609,RadArena / St.Gotthard: Furka - Nufenen - Gotthard,46.617645,8.566543
503825,Glatten (2504 m.ü.M.),46.913704,8.846414
130024,Maderanertal Bike - 412 SchweizMobil,46.769699,8.670964
224300,Alpenkranz 11. Etappe: Haldi - Bälmeten - Seewlisee,46.85754,8.688992
250447,Schongau - Horben - Schongau,47.272831,8.27716
165229,Schneeschuhtrail 877: Hospental,46.620998,8.570666
229125,WanderWunder Schwyz: Rundwanderung um den grossen Mythen,47.021046,8.703021
167801,Von der Staffelegg zur Salhöhe,47.433804,8.060454
72195,Rundweg um einen der grössten Golfplätze Europas,46.620872,8.570369
158669,Alpchäs-Weg mit Chäs(S)pass,46.978786,8.666883
98966,Bike-Tour 412: Maderanertal,46.769718,8.670961
120808,Historische Altstädte am Hochrhein,47.569427,8.418756
245406,Alpenkranz 15. Etappe: Hüfihütte - Düssialp - Hinterbalm,46.801823,8.818913
98970,Biketour Maighelspass,46.636715,8.593571
156788,Himmlische Pfade: Tal-Variante Flüeli/Ranft - Engelberg,46.87191,8.269497
49359,Im wilden Westen von Luzern,46.818352,8.085958
95923,Muotathal - Rundroute Fugglen,46.970497,8.789079
301437,Wynental-Route: Von Menziken nach Aarau,47.240856,8.189013
324723,Rigi Tell Weg,47.044098,8.466459
70869,Schwyzer Höhenweg 1. Etappe Küssnacht – Rigi,47.084633,8.434779
120823,Rheinfelder Wellnesstour,47.557156,7.799914
85179,Hotel Klausenpasshöhe - Balmergrätli - Ruosalper Chulm - Balm,46.87236,8.836989
117043,Lengnauer Sagen- und Geschichtenweg,47.520805,8.329827
260836,Gigenstafel,46.631908,8.592231
504694,Spirstock,46.988426,8.729399
262257,Schneeschuhtrail Heiligkreuz - Kleine First - First,46.949551,8.049476
563648,Schlittelweg Rigi Burggeist-Gschwänd,47.025478,8.525159
178093,Herzschlaufe Napf (SchweizMobil Route 399),47.12252,7.996633
135599,Urner Alpen,46.769108,8.691653
93278,Rigi - Weg der Naturschätze,47.044113,8.466727
211619,Zwergenweg auf dem Sonnenberg,47.043751,8.272662
98898,Bike-Tour 405 Erstfeldertal-BIke,46.820408,8.650751
552497,Grosser Melchaa-Weg Sarnen - Stöckalp,46.89473,8.247245
187868,Holzskulpturenweg Unteriberg,47.05809,8.798858
69928,Lopper Trail,46.982033,8.310208
171513,Schiberg (2'044 m.ü.M),47.105473,8.91963
157624,BUIRÄBÄHNLI SAFARI,46.81953,8.402892
451315,Flüeli - Sachseln,46.871902,8.269739
129177,Waldstätterweg Etappe 6: Bürgenstock - Beckenried,46.996727,8.378424
205025,Hochdorf - Baldeggersee - Hitzkirch,47.169418,8.287623
260849,Treschhütte SAC,46.734207,8.631401
120933,Freiämterweg: Variante Lindenberg,47.329636,8.248408
177097,Gerschnialp/Trauboden Engelberg,46.819618,8.402877
71612,Panoramaweg March,47.130642,8.887461
120903,Habsburger Weg 6. Etappe: Bremgarten - Muri,47.351948,8.346877
245409,Alpenkranz 39. Etappe: Kröntenhütte - Schlossberglücke - Spannorthütte,46.799999,8.575317
262273,Nordic - Walking Andermatt,46.63665,8.593326
72170,Erlebnisweg Gersau,46.990913,8.524506
288087,Grotzli Trail Fürenalp,46.801239,8.468111
619006,von Albert-Heim-Hütte via Nepali Highway und Sidelenhütte nach Furkapass,46.608738,8.463847
120887,Erlebnis Wasserschloss: Brückenwanderung kurz,47.481308,8.210513
176930,Erlebnis PLUS: Sursee-Sempach-Sursee,47.1726,8.107084
120936,Freiämterweg: Muri - Bremgarten,47.275558,8.337543
219444,Bus and cable car to Bruesti and walk to Engelberg,46.843159,8.606749
434148,Rundwanderung um den Sarnersee,46.894188,8.247462
628710,Zell - Luthern,47.136597,7.926143
541491,WanderWunder Schwyz: Rundwanderung Etzel,47.17363,8.772211
81220,5-Tagestour Gotthard Tunnel Trail,46.819656,8.646571
132224,Marbachegg - Kemmeriboden,46.835033,7.906411
972237,Tell-Trail Etappe 5: Stans-Engelberg,46.930286,8.342435
586709,Zell - Willisau,47.136452,7.926218
279469,Spaziergang um den Rotsee,47.060307,8.301691
120930,"Chriesiwäg - Von Obstgärten, Chriesi und Kirsch",47.507385,8.013382
1041447,Schneeschuhtour Turren - Schönbüel,46.789433,8.129699
1002829,Wanderung auf den Giswilerstock,46.806114,8.120819
132286,BUIRÄBÄHNLI SAFARI Etappe 2,46.904099,8.408333
887922,"190903 Rigi Scheidegg Rigi Kaltbad  6,5 km  + 164 m  -373 m",47.027458,8.522233
72858,Via Gottardo: Erstfeld - Göschenen,46.820621,8.65056
177012,Energiegeladen durch Entlebuch,46.991753,8.065004
613175,Waldstätterweg Gersau - Vitznau,46.990677,8.526046
208234,Im Wanderschuh zum Älplerrendez-vous - Etappe 2,46.871181,7.947854
159606,Maighelspass,46.636715,8.59357
761087,Chatzäbalmäli-Trail,46.819355,8.402963
341383,Luzerner Kapellenweg,47.070263,8.196566
348148,Trübsee (Obertrübsee-Hüethütte-Trübsee Station),46.793999,8.398178
368232,WanderWunder Schwyz: Rigi Burggeist,47.027451,8.522247
98901,Bike-Tour 404: Gitschital-Bike,46.876274,8.631595
231130,Hoch-Ybrig Bike - SchweizMobil Route 967,47.128136,8.744766
95922,Muotathal - Rundroute Guggeli,46.976597,8.757461
190959,Familienwanderung Albert-Heim-Hütte,46.592903,8.461577
693236,Drei-Seen-Tour (Luzern-Brunnen-Sattel-Ägeri-Zug-Luzern),47.040527,8.305235
450301,Biketour Furka Höhenweg (Urschner Höhenweg),46.636784,8.593745
491817,Rundweg Dreiwässern,47.174763,8.712446
616552,Klettersteige Brunnistöckli und Rigidalstock,46.841225,8.411084
447808,Über die Klostermatte bis Horbis,46.819775,8.402696
132222,Schüpfheimer Panoramatour,46.950512,8.015374
177637,von Risch nach Immensee durch die Hohle Gasse,47.132679,8.463003
257150,Obwaldner Höhenweg: Etappe 3,46.787163,8.096699
257133,Langis - Rickhubel,46.892868,8.125371
560191,Giswil-Grossteil Runde,46.836319,8.185866
183256,Die Höllgrotten im Lorzetobel,47.195122,8.523052
248567,Andermatt - Nätschen,46.636616,8.593189
59842,Rundweg vom Ratzi über das Geissgrätli zum Kinzigpass,46.885414,8.732176
311541,Salhöhe nach Gipf-Oberfrick,47.4286,7.987453
248570,Andermatt - Hospental - Realp,46.636726,8.593614
